City_ID,City,Country,Max Temp,Current Description,Lat,Lng,Hotel Name
0,Bluff,NZ,76.8,scattered clouds,-46.6,168.3333,Bluff Homestead - Guesthouse & Campervan Park
1,Busselton,AU,68.04,clear sky,-33.65,115.3333,Observatory Guest House
6,Bredasdorp,ZA,62.28,broken clouds,-34.5322,20.0403,Bredasdorp Country Manor
9,Carnarvon,AU,75.27,clear sky,-24.8667,113.6333,Hospitality Carnarvon
10,Santa Cruz,BO,74.66,moderate rain,-17.8,-63.1667,Aviador Hotel Boutique
15,Makakilo City,US,82.72,scattered clouds,21.3469,-158.0858,Marriott's Ko Olina Beach Club
18,Ribeira Grande,PT,61.02,overcast clouds,38.5167,-28.7,Quinta da Meia Eira
19,Kabompo,ZM,63.05,light rain,-13.5927,24.2008,Big Tree
21,Punta Arenas,CL,60.91,few clouds,-53.15,-70.9167,Hotel Hain
22,New Norfolk,AU,73.92,overcast clouds,-42.7826,147.0587,The Shingles Riverside Cottages
24,Keningau,MY,75.65,moderate rain,5.3378,116.1602,Sabindo Hotel
28,Avarua,CK,82.45,broken clouds,-21.2078,-159.775,Paradise Inn
31,Hobart,AU,74.26,clear sky,-42.8794,147.3294,Mantra on Collins Hobart
32,Itarema,BR,81.05,overcast clouds,-2.9248,-39.9167,"Sea Lounge! Bar, Club & Restaurant"
35,Houma,US,75.0,overcast clouds,29.5958,-90.7195,Courtyard by Marriott Houma
36,Hithadhoo,MV,81.9,overcast clouds,-0.6,73.0833,Scoop Guest House
38,Hilo,US,78.53,light rain,19.7297,-155.09,Hilo Hawaiian Hotel
40,Hermanus,ZA,64.9,few clouds,-34.4187,19.2345,Misty Waves Boutique Hotel
42,Cape Town,ZA,64.11,clear sky,-33.9258,18.4232,Southern Sun Waterfront Cape Town
43,Guerrero Negro,MX,64.11,clear sky,27.9769,-114.0611,"Casa Laguna, Bed & Breakfast"
44,Butaritari,KI,82.18,scattered clouds,3.0707,172.7902,Isles Sunset Lodge
46,Padang,ID,75.25,moderate rain,-0.9492,100.3543,Mercure Padang
47,Rikitea,PF,77.86,light rain,-23.1203,-134.9692,People ThankYou
49,Victoria,HK,63.25,overcast clouds,22.2855,114.1577,Mini Hotel Central
50,Dunedin,NZ,73.33,broken clouds,-45.8742,170.5036,Scenic Hotel Southern Cross
51,East London,ZA,64.06,few clouds,-33.0153,27.9116,Tu Casa
54,Atuona,PF,78.28,few clouds,-9.8,-139.0333,Villa Enata
57,Ponta Do Sol,PT,68.0,broken clouds,32.6667,-17.1,Hotel do Campo
58,Faanui,PF,80.15,light rain,-16.4833,-151.75,Bora-Bora Pearl Beach Resort & Spa
61,Kapaa,US,82.38,light rain,22.0752,-159.319,Sheraton Kauai Coconut Beach Resort
68,Mwinilunga,ZM,62.13,overcast clouds,-11.7358,24.4293,Kwakuwahi Lodge
71,Mataura,NZ,76.48,broken clouds,-46.1927,168.8643,Ellie's Villa
74,Meulaboh,ID,74.48,light rain,4.1363,96.1285,Kost Pria
76,Xambioa,BR,74.52,overcast clouds,-6.4111,-48.5364,Pousada Do Sol
77,Lorengau,PG,80.47,light rain,-2.0226,147.2712,Lorengau Harbourside Hotel
81,Namibe,AO,68.29,overcast clouds,-15.1961,12.1522,Hotel Chik Chik Namibe
82,Arraial Do Cabo,BR,73.94,clear sky,-22.9661,-42.0278,Pousada Porto Praia
85,Coquimbo,CL,62.96,few clouds,-29.9533,-71.3436,Punto de encuentro
90,Mar Del Plata,AR,71.1,clear sky,-38.0023,-57.5575,Gran Hotel Mar del Plata
92,Georgetown,MY,76.95,scattered clouds,5.4112,100.3354,Cititel Penang
93,Bengkulu,ID,77.68,overcast clouds,-3.8004,102.2655,Grage Hotel Bengkulu
94,Sinnamary,GF,77.77,few clouds,5.3833,-52.95,ALETHEIA Appartement Sinnamary
95,Port Elizabeth,ZA,62.89,clear sky,-33.918,25.5701,39 On Nile Guest House
98,Berbera,SO,74.01,scattered clouds,10.4396,45.0143,IBCO REAL ESTATE PROPERTY
99,Puerto Ayora,EC,69.55,overcast clouds,-0.7393,-90.3518,Finch Bay Galapagos Hotel
102,Richards Bay,ZA,62.19,overcast clouds,-28.783,32.0377,BON Hotel Waterfront Richards Bay
104,Mayumba,GA,76.46,overcast clouds,-3.432,10.6554,LIKWALE LODGE
106,Cabo San Lucas,MX,74.5,scattered clouds,22.8909,-109.9124,Hotel Tesoro Los Cabos
107,Tres Arroyos,AR,79.61,overcast clouds,-38.3739,-60.2798,Habitacion Triple con baño y entrada privada
108,Damaturu,NG,61.93,few clouds,11.747,11.9608,"Hayas Guest Inn, Central Roundabout, Gujba Road"
114,Huarmey,PE,68.04,scattered clouds,-10.0681,-78.1522,Hotel Miramar
116,Saint-Philippe,RE,73.47,few clouds,-21.3585,55.7679,"Chambres d'hôte ""La Trinité"""
117,Coahuayana,MX,74.01,overcast clouds,18.7333,-103.6833,El rranchito michuacan de ocampos
120,Zomba,MW,63.01,overcast clouds,-15.386,35.3188,Trout Farm Campsite
124,Santa Marta,CO,84.25,broken clouds,11.2408,-74.199,Casa de Isabella
125,Puerto Maldonado,PE,76.19,light rain,-12.6,-69.1833,Wasai Hotel
127,Masaka,UG,65.59,overcast clouds,-0.3338,31.7341,Maria flo hotel
128,Kralendijk,BQ,80.58,clear sky,12.15,-68.2667,Divi Flamingo Beach Resort & Casino
129,Oriximina,BR,77.14,overcast clouds,-1.7656,-55.8661,Pousada Tia Amélia
130,Kaitangata,NZ,76.17,scattered clouds,-46.2817,169.8464,Kaitangata Motor Camp
135,Kuching,MY,75.42,mist,1.55,110.3333,The Ranee Boutique Suites
138,Salinopolis,BR,79.81,overcast clouds,-0.6136,-47.3561,Salinas Park Resort Maçarico AP101
139,Port Alfred,ZA,64.63,scattered clouds,-33.5906,26.891,The Halyards Hotel
143,Cidreira,BR,70.3,broken clouds,-30.1811,-50.2056,Hotel Castelo
144,Touros,BR,81.5,broken clouds,-5.1989,-35.4608,INN NEW HORIZON
145,Vao,NC,76.62,few clouds,-22.6667,167.4833,Hotel Kou-Bugny
147,Arona,ES,62.38,broken clouds,28.0996,-16.681,Paradise Court
149,Port Blair,IN,79.65,broken clouds,11.6667,92.75,"Welcomhotel By ITC Hotels, Bay Island, Port Blair"
158,Antofagasta,CL,63.54,broken clouds,-23.65,-70.4,"Holiday Inn Express Antofagasta, an IHG Hotel"
160,Geraldton,AU,73.81,clear sky,-28.7667,114.6,Broadwater Mariner Resort
166,Mattru,SL,76.19,clear sky,7.6244,-11.8332,"Mondkor Town, Bagbo Chiefdom, Bo District"
167,Port-Gentil,GA,80.02,scattered clouds,-0.7193,8.7815,Fengshui Residence
168,Ahipara,NZ,69.28,clear sky,-35.1667,173.1667,Ahipara Holiday Park
169,Mahebourg,MU,73.26,clear sky,-20.4081,57.7,Shandrani Beachcomber Resort & Spa
171,Ancud,CL,62.13,clear sky,-41.8697,-73.8203,Hotel Arena Gruesa
173,Sao Jose Da Coroa Grande,BR,78.84,few clouds,-8.8978,-35.1478,Crôa Mares Hotel
174,Alugan,PH,81.16,overcast clouds,12.2188,125.4808,JM Lodge
177,Airai,TL,72.37,overcast clouds,-8.9266,125.4092,Juvinal Martin
179,Morant Bay,JM,82.02,scattered clouds,17.8815,-76.4093,Whispering Bamboo Cove Resort
184,Puri,IN,63.12,clear sky,19.8,85.85,OYO 1577 Hotel Shree Hari Grand
186,Rafaela,AR,82.98,clear sky,-31.2503,-61.4867,Parra Hotel & Suites
188,Necochea,AR,76.96,light rain,-38.5473,-58.7368,dyd -mar Hotel
189,Castro,BR,61.39,broken clouds,-24.7911,-50.0119,CHACARA BAILLY
190,Sampang,ID,84.15,overcast clouds,-7.1872,113.2394,sekretariat IKA STAIN
191,Mkushi,ZM,64.18,light rain,-13.6202,29.3939,Mkushi Police Club
192,Banda Aceh,ID,76.01,moderate rain,5.5577,95.3222,Sulthan Hotel International
194,Xucheng,CN,65.1,overcast clouds,20.35,110.1288,Haixing Hotel
196,Quatre Cocos,MU,73.09,clear sky,-20.2078,57.7625,Sunrise Attitude Hotel
197,Mackay,AU,84.18,scattered clouds,-21.15,149.2,International Lodge Motel
198,Tuatapere,NZ,76.82,few clouds,-46.1333,167.6833,Ron and Tony's Bed & Breakfast
202,Acapulco,MX,78.84,scattered clouds,16.8634,-99.8901,HS Hotsson Smart Acapulco
204,Chicama,PE,63.14,overcast clouds,-7.8447,-79.1469,Balihai Bungalows
205,Cap Malheureux,MU,73.47,clear sky,-19.9842,57.6142,Pereybere Hotel & Spa
208,Lamu,KE,79.02,light rain,-2.2717,40.902,Lamu House
210,Kahului,US,82.42,light rain,20.8947,-156.47,Maui Seaside Hotel
211,Gelemso,ET,61.29,scattered clouds,8.8167,40.5167,Kerod Hotel
213,Boa Vista,BR,82.38,scattered clouds,2.8197,-60.6733,Aipana Plaza Hotel
215,Sulangan,PH,81.0,scattered clouds,11.1373,123.7228,Maia's Beach Resort
218,Farafangana,MG,73.65,light rain,-22.8167,47.8333,Miarina
220,Alofi,NU,84.09,few clouds,-19.0595,-169.9187,Taloa Heights
222,Minab,IR,62.1,overcast clouds,27.1467,57.0801,Bam campground
223,Sumenep,ID,84.78,overcast clouds,-7.0167,113.8667,OYO 3271 Homestay Pandian
224,Tanete,ID,84.6,few clouds,-3.9443,119.7848,Wisma Tri Multi
229,Tairua,NZ,76.08,clear sky,-37.0167,175.85,Pacific Harbour Villas
232,Camopi,GF,72.46,broken clouds,3.1655,-52.3158,La pousada
234,Emerald,AU,84.34,scattered clouds,-23.5333,148.1667,The Irish Village
237,Alto Araguaia,BR,71.08,light rain,-17.3147,-53.2153,Araguaia Palace Hotel
238,Cockburn Town,TC,76.96,scattered clouds,21.4612,-71.1419,Osprey Beach Hotel
249,Nkoteng,CM,68.58,overcast clouds,4.5167,12.0333,Résidence OOCLO-Cannelle
252,Caravelas,BR,74.8,overcast clouds,-17.7125,-39.2481,Pousada dos Navegantes
254,Salalah,OM,69.62,few clouds,17.0151,54.0924,"HAMDAN PLAZA HOTEL SALALAH, an HTG Hotel"
255,Buta,CD,72.18,scattered clouds,2.7858,24.73,HOTEL BISO NA BISO
258,Bairiki,KI,80.6,light intensity shower rain,1.3292,172.9752,Tarawa Boutique Hotel
259,Coihaique,CL,66.15,few clouds,-45.5752,-72.0662,Diego De Almagro Coyhaique
260,Tiarei,PF,78.82,light rain,-17.5333,-149.3333,Le Rocher de Tahiti
266,Anantapur,IN,63.03,clear sky,14.6833,77.6,Ashoka Lodge
268,Palembang,ID,77.09,few clouds,-2.9167,104.7458,ASTON Palembang Hotel & Conference Center
270,Ambilobe,MG,75.76,few clouds,-13.2,49.05,Hôtel & Restaurant DIANA Ambilobe
271,Biltine,TD,64.6,broken clouds,14.5333,20.9167,Hôtel Trois Étoiles de Biltine
272,Harper,LR,80.08,overcast clouds,4.375,-7.7169,Screensaver
273,Bonito,BR,75.9,overcast clouds,-21.1211,-56.4819,Marruá Hotel
277,Gizo,SB,82.54,light rain,-8.103,156.8419,Imagination Island
279,Pisco,PE,68.05,clear sky,-13.7,-76.2167,Hotel San Isidro Oficial
281,Cayenne,GF,81.09,few clouds,4.9333,-52.3333,Hôtel Le Dronmi
284,Millbrook,US,65.21,moderate rain,32.4799,-86.3619,Courtyard by Marriott Montgomery Prattville
285,Fare,PF,79.63,light rain,-16.7,-151.0167,Maitai Lapita Village Huahine
289,Sao Felix Do Xingu,BR,73.8,light rain,-6.6447,-51.995,Rio Xingu Camping
292,Dingle,PH,81.97,overcast clouds,10.9995,122.6711,SEGAYA PROPERTY
293,Luwero,UG,64.99,light rain,0.8492,32.4731,Forgettable
297,Port Lincoln,AU,63.61,overcast clouds,-34.7333,135.8667,Port Lincoln Hotel
301,Omboue,GA,77.02,overcast clouds,-1.5746,9.2618,Hotel Olako
304,Swellendam,ZA,61.18,overcast clouds,-34.0226,20.4417,De Kloof Luxury Estate boutique Hotel & SPA
305,San Patricio,US,60.89,overcast clouds,28.017,-97.5169,"Motel 6 Sinton, TX"
308,Mana,GF,77.47,clear sky,5.6592,-53.7767,LE SAMANA
310,Aparecida Do Taboado,BR,73.35,scattered clouds,-20.0867,-51.0936,Aritana
313,Sokoni,TZ,81.18,clear sky,-6.4333,39.55,Ujamaa Beach Resort
314,Waipawa,NZ,66.83,clear sky,-41.4122,175.5153,Tora Coastal Walk
317,Hobyo,SO,77.92,overcast clouds,5.3505,48.5268,Halane Hotel and Restaurent
318,Progreso,MX,83.1,broken clouds,21.2833,-89.6667,Playa Linda Hotel
319,Viedma,AR,78.24,clear sky,-40.8135,-62.9967,Hotel Cristal
324,Rio Grande,BR,67.95,clear sky,-32.035,-52.0986,Hotel Atlântico Rio Grande
325,San Nicolas,PH,78.94,broken clouds,18.1725,120.5953,NORTHVIEW Hotel
327,Sur,OM,67.6,overcast clouds,22.5667,59.5289,Sur Plaza Hotel
328,Buala,SB,82.22,light rain,-8.145,159.5921,Maringe Lagoon Lodge
329,Tolaga Bay,NZ,70.43,clear sky,-38.3667,178.3,Tolaga Bay Motel
332,Maragogi,BR,78.94,clear sky,-9.0122,-35.2225,Salinas do Maragogi All Inclusive Resort
333,Sibolga,ID,73.99,light rain,1.7427,98.7792,Hotel Syariah CN Darussalam
338,Porto Velho,BR,77.05,light rain,-8.7619,-63.9039,Hotel Central
345,Careiro Da Varzea,BR,79.41,light rain,-3.2003,-59.8119,POUSADA DA ALDENORA
347,Sorong,ID,82.89,few clouds,-0.8833,131.25,Waigo Splash Hotel
353,Samarai,PG,83.86,overcast clouds,-10.6167,150.6667,Nuli Sapi
355,Lazaro Cardenas,MX,77.97,few clouds,17.9583,-102.2,quinta antigua
356,Seddon,AU,74.77,light rain,-37.8068,144.8916,Footscray Motor Inn
359,Biu,NG,61.83,few clouds,10.6129,12.1946,Emir's Palace
360,The Valley,AI,78.82,few clouds,18.217,-63.0578,CeBlue Villas & Beach Resort
362,Byron Bay,AU,84.7,broken clouds,-28.65,153.6167,Backpackers Inn
365,Sinjai,ID,83.88,overcast clouds,-5.1241,120.253,Wisma Sandika
366,Gros Islet,LC,80.47,broken clouds,14.0667,-60.95,Coco Palm Resort
369,Chuy,UY,64.56,clear sky,-33.6971,-53.4616,Nuevo Hotel Plaza
372,Kaeo,NZ,77.32,clear sky,-35.1,173.7833,Bushido Lodge
374,Miri,MY,75.34,few clouds,4.4148,114.0089,"Mega Hotel, Miri"
375,Kimbe,PG,77.05,overcast clouds,-5.5502,150.1429,Kimbe Bay Hotel
379,Sao Filipe,CV,71.67,overcast clouds,14.8961,-24.4956,Hotel Xaguate
386,Bambous Virieux,MU,73.22,clear sky,-20.3428,57.7575,Casa Tia Villa
388,Perth,AU,72.03,clear sky,-31.9333,115.8333,Beatty Lodge
390,Takoradi,GH,80.22,broken clouds,4.8845,-1.7554,Raybow International Hotel
392,Vila Velha,BR,71.55,overcast clouds,-20.3297,-40.2925,Quality Suites Vila Velha
393,Daoukro,CI,69.64,overcast clouds,7.0591,-3.9631,Komenan brou roseline
394,Bathsheba,BB,79.41,few clouds,13.2167,-59.5167,Atlantis Hotel
398,Manta,EC,74.98,overcast clouds,-0.95,-80.7333,Balandra Hotel
399,Kassala,SD,72.79,clear sky,15.451,36.4,Amassi Hotel Gash
400,Presidencia Roque Saenz Pena,AR,79.5,clear sky,-26.7852,-60.4388,Hotel Aconcagua
401,Clearwater,US,75.9,scattered clouds,27.9659,-82.8001,Shephard's Beach Resort
402,Castelo Do Piaui,BR,84.92,broken clouds,-5.3222,-41.5525,Nobre Hotel
405,Santa Fe,AR,84.99,clear sky,-31.6333,-60.7,Conquistador Hotel
406,Santa Cruz De La Palma,ES,68.14,scattered clouds,28.6835,-17.7642,H10 Taburiente Playa
407,Souillac,MU,73.36,clear sky,-20.5167,57.5167,Shanti Maurice Resort & Spa
408,Puerto Narino,CO,78.75,overcast clouds,-3.7703,-70.3831,Eware Refugio Amazonico
409,Rawson,AR,61.61,scattered clouds,-43.3002,-65.1023,Hosteria Sampedro
422,Lucapa,AO,64.22,broken clouds,-8.4192,20.7447,Residência Ulisses Dos Santos
424,Balayong,PH,81.23,overcast clouds,9.4744,123.0623,Inawasan Family Camping Ground
425,Natitingou,BJ,69.85,clear sky,10.3042,1.3796,Auberge Centrale
428,Coracao De Jesus,BR,72.32,moderate rain,-16.6853,-44.365,Hotel Neves
429,Coruripe,BR,78.96,few clouds,-10.1256,-36.1756,Pousada e Hotel Litoral Sul
436,Poladpur,IN,66.31,clear sky,17.9802,73.466,SPOT ON 68232 Captian Vikram Rao More Hall
439,Saint-Pierre,RE,74.57,clear sky,-21.3393,55.4781,Lindsey Hôtel
440,Mabaruma,GY,74.12,overcast clouds,8.2,-59.7833,Monty Brooms Guest House
441,Anloga,GH,81.03,scattered clouds,5.7947,0.8973,Pin Drop Hotel
442,Mitsamiouli,KM,79.23,clear sky,-11.3847,43.2844,Foyer ADM
447,Vallenar,CL,73.04,broken clouds,-28.5708,-70.7581,Humacao Bed & Breakfast
448,Bataipora,BR,75.72,clear sky,-22.2953,-53.2711,Hotel Vale do Ivinhema
450,Nago,JP,64.47,broken clouds,26.5881,127.9761,Hotel Yugaf Inn Okinawa
453,Matamoros,MX,72.1,scattered clouds,25.5333,-103.25,Quinta Belem
455,Puerto Baquerizo Moreno,EC,69.08,overcast clouds,-0.9,-89.6,Hotel los Algarrobos
457,Kavieng,PG,81.77,light rain,-2.5744,150.7967,Nusa Island Retreat
461,Juruti,BR,76.5,overcast clouds,-2.1522,-56.0922,Hotel Acauã - ORLA
463,Nieuw Amsterdam,SR,80.02,overcast clouds,5.8833,-55.0833,Hotel Stardust
468,Bajitpur,BD,64.44,clear sky,24.2167,90.95,Hotel Chand
469,Kudahuvadhoo,MV,81.32,overcast clouds,2.6708,72.8944,Niyama Private Islands Maldives
470,Marawi,PH,72.64,scattered clouds,7.9986,124.2928,Derogongan Residence
472,Sao Joao Da Barra,BR,73.81,overcast clouds,-21.6403,-41.0511,Pousada Porto De Canoas
473,Kisangani,CD,69.69,light rain,0.5167,25.2,Grand Ramela Hotel
480,Anton Lizardo,MX,79.21,clear sky,19.05,-95.9833,Hotel CocoAventura
482,Laredo,US,71.6,clear sky,27.5064,-99.5075,La Posada Hotel
483,Gisborne,NZ,70.95,scattered clouds,-38.6533,178.0042,ASURE Alfresco Motor Lodge
485,Xique-Xique,BR,81.01,overcast clouds,-10.8218,-42.7263,Hotel J. Macedo
488,Esperance,AU,64.69,few clouds,-33.8667,121.9,Hospitality Esperance
489,Pathein,MM,67.48,clear sky,16.7833,94.7333,New Pammawaddy Hotel
490,Bubaque,GW,78.91,few clouds,11.2833,-15.8333,"Casa Dora, Bubaque"
492,Vung Tau,VN,77.94,overcast clouds,10.346,107.0843,Green hotel
495,Benemerito De Las Americas,MX,73.83,few clouds,16.5167,-90.6439,"Tres Lagunas, Selva Lacandona"
498,Akyab,MM,65.84,few clouds,20.15,92.9,Hotel Memory
501,Cape Canaveral,US,77.07,clear sky,28.4058,-80.6048,Residence Inn by Marriott Cape Canaveral Cocoa Beach
502,San Cristobal,VE,67.59,overcast clouds,7.7669,-72.225,Posada Villaven C.A.
506,Lingao,CN,65.64,overcast clouds,19.9103,109.6859,Lingao Ditai Inn
507,Pochutla,MX,80.82,scattered clouds,15.7432,-96.4661,Hotel Posada San Jose
510,Pimentel,PE,67.55,overcast clouds,-6.8367,-79.9342,Casona Del Muelle
513,Kloulklubed,PW,84.42,few clouds,7.0419,134.2556,Storyboard Beach Resort
515,Playas,EC,73.45,overcast clouds,-2.6333,-80.3833,Hostal Promenade
516,Ternate,ID,84.27,scattered clouds,0.8,127.4,Sahid Bela Ternate Hotel
520,Dickinson,US,62.98,overcast clouds,29.4608,-95.0513,Hampton Inn & Suites Houston/League City
523,Tabou,CI,80.17,overcast clouds,4.423,-7.3528,hotêl doufoulougou
526,Namatanai,PG,79.5,light rain,-3.6667,152.4333,Seagulls Inn Namatani
530,Razole,IN,70.09,clear sky,16.4833,81.8333,Sterling Palavelli Godavari
534,Manado,ID,84.97,few clouds,1.487,124.8455,Aryaduta Hotel
536,Nouakchott,MR,64.33,overcast clouds,18.0858,-15.9785,HOTEL IMAN
538,Manggar,ID,80.11,light rain,-2.8833,108.2667,Guest Hotel
539,Isangel,VU,78.58,light rain,-19.55,169.2667,Tanna Lodge
542,Atlantis,ZA,62.19,clear sky,-33.5667,18.4834,Sunrise Farm
543,Conceicao Da Barra,BR,73.15,overcast clouds,-18.5933,-39.7322,Cricaré Praia Hotel
545,Dong Hoi,VN,67.41,overcast clouds,17.4833,106.6,Nam Long Hotel
549,Ambulu,ID,81.34,overcast clouds,-8.345,113.6058,Hotel Ambulu Jember
557,Delta Del Tigre,UY,72.18,clear sky,-34.7633,-56.3853,FINCA SUAREZ
559,Borba,BR,75.99,heavy intensity rain,-4.3878,-59.5939,Hotel da Amazônia
563,Kamakwie,SL,74.1,clear sky,9.5,-12.2333,White House Hotel
566,Honda,CO,74.79,overcast clouds,5.2086,-74.7358,Hotel Campestre el Molino
567,Puerto Quijarro,BO,75.52,overcast clouds,-17.7833,-57.7667,Hotel palance
568,Russell,US,65.97,heavy intensity rain,32.3502,-85.1999,Macs
569,Inhambane,MZ,68.81,overcast clouds,-23.865,35.3833,Oceano
570,Bria,CF,70.47,overcast clouds,6.5423,21.9863,WFP Guesthouse
571,Saint-Leu,RE,73.96,scattered clouds,-21.15,55.2833,La Caz Oceane
573,Honiara,SB,82.67,overcast clouds,-9.4333,159.95,Heritage Park Hotel
574,Poum,NC,79.07,scattered clouds,-20.2333,164.0167,Gîte kajeon
576,Ovalle,CL,73.49,clear sky,-30.5983,-71.2003,Hotel Altos de Tuqui
581,Malpe,IN,74.5,clear sky,13.35,74.7167,Hotel Sri Krishna Residency
582,Havelock,US,67.98,overcast clouds,34.8791,-76.9013,Sherwood Motel
583,Monte Carmelo,BR,68.38,heavy intensity rain,-18.7247,-47.4986,Park hotel
585,Palmetto,US,76.14,clear sky,27.5214,-82.5723,Courtyard by Marriott Bradenton Sarasota/Riverfront
586,Camacha,PT,64.53,few clouds,33.0833,-16.3333,Hotel Porto Santo & Spa
587,Upington,ZA,68.11,overcast clouds,-28.4478,21.2561,River Place Manor
588,Pemangkat,ID,79.93,overcast clouds,1.1667,108.9667,Ramah Kost KITA
591,Pontes E Lacerda,BR,70.63,overcast clouds,-15.2261,-59.3353,Hotel Bressan
592,Iquique,CL,66.24,overcast clouds,-20.2208,-70.1431,Backpacker`s Hostel Iquique
593,Singkang,MY,74.98,overcast clouds,2.1006,102.7994,Kampung Seri Makmor Pagoh
598,Nanakuli,US,84.15,clear sky,21.3906,-158.1547,Camp Pālehua
599,Cabedelo,BR,79.47,scattered clouds,-6.9811,-34.8339,Hotel Pigalle
610,Tandalti,SD,64.33,clear sky,13.0167,31.8667,منزل : الهادي محمد مساعد
611,Sechura,PE,70.57,overcast clouds,-5.5569,-80.8222,Hospedaje Costa Bella
612,Kyenjojo,UG,61.74,light rain,0.6328,30.6214,Tropical Gardens
614,Buin,CL,77.74,clear sky,-33.7333,-70.75,Paihuen
615,Porto Novo,BJ,77.49,few clouds,6.4965,2.6036,Tour Eiffel Hotel Benin
616,Mancio Lima,BR,75.29,broken clouds,-7.6142,-72.8958,Hotel e Distribuidora Voyage
617,Lima,PE,69.91,scattered clouds,-12.0432,-77.0282,Gran Hotel Bolivar Lima
621,Karaton,ID,82.56,overcast clouds,-6.3424,106.1045,Parkir Mobil Wisata CAS Water Park
622,Santacruz,CO,60.08,light rain,1.5209,-77.2621,La Orqueta
627,Key Largo,US,78.8,overcast clouds,25.0865,-80.4473,Bayside Inn Key Largo
633,Mlonggo,ID,82.29,overcast clouds,-6.5333,110.7,Asia Metal Art
635,Papar,MY,78.8,light rain,5.7333,115.9333,Koposizon Homestay
636,Weligama,LK,74.66,broken clouds,5.9667,80.4167,Weligama Bay Resort
637,Tarakan,ID,76.5,overcast clouds,3.3,117.6333,RedDoorz Syariah near Taman Berlabuh Tarakan
644,Riyadh,SA,63.63,overcast clouds,24.6877,46.7219,"InterContinental Riyadh, an IHG Hotel"
649,Alta Floresta,BR,72.12,overcast clouds,-9.8756,-56.0861,Floresta Amazonica Hotel
651,Kandrian,PG,76.39,light rain,-6.2167,149.55,Kandrian Station
653,Christchurch,NZ,78.48,overcast clouds,-43.5333,172.6333,The George
654,Rio Cuarto,AR,76.68,clear sky,-33.1307,-64.3499,Grand Hotel Río Cuarto
655,Makasar,ID,78.85,scattered clouds,-5.14,119.4221,Hotel Horison Ultima Makassar
658,Galveston,US,63.97,overcast clouds,29.3669,-94.9669,Comfort Inn & Suites Texas City
661,Brazzaville,CG,74.89,light rain,-4.2658,15.2832,Hotel Muesse
663,Villa Constitucion,AR,81.99,clear sky,-33.2278,-60.3297,HOTEL EMBAJADOR
666,Kailua,US,81.81,scattered clouds,21.4022,-157.7394,Sheffield House Bed & Breakfast
667,Mityana,UG,67.59,overcast clouds,0.4175,32.0228,Green Valley Hotel
668,Imbituba,BR,71.82,overcast clouds,-28.24,-48.6703,Praia Hotel Imbituba
670,Massaguet,TD,67.69,clear sky,12.4755,15.4365,Alwatane
675,Mount Pleasant,US,68.18,clear sky,32.7941,-79.8626,Best Western Patriots Point
679,Bull Savanna,JM,74.25,scattered clouds,17.8868,-77.5902,Big Red's
680,Milledgeville,US,68.77,heavy intensity rain,33.0801,-83.2321,Hampton Inn Milledgeville
